,City,Cloudiness,Country,Date,Humidity,Lat,Lng,Max Temp,Wind Speed
0,meulaboh,11.0,ID,1570336132.0,78.0,4.14,96.13,78.28,6.71
1,barrow,31.0,AR,1570336132.0,88.0,-38.31,-60.23,39.62,5.66
3,nhulunbuy,40.0,AU,1570336133.0,55.0,-12.18,136.78,86.0,12.75
4,lesnyye polyany,90.0,RU,1570336133.0,86.0,55.97,37.87,39.2,8.95
5,ronne,90.0,FR,1570336133.0,100.0,48.45,0.83,55.4,6.93
6,bredasdorp,69.0,ZA,1570336133.0,87.0,-34.53,20.04,48.2,1.12
7,mar del plata,6.0,AR,1570336133.0,43.0,-46.43,-67.52,48.69,7.76
8,hermanus,100.0,ZA,1570336134.0,84.0,-34.42,19.24,55.0,13.06
9,hobart,75.0,AU,1570336087.0,72.0,-42.88,147.33,59.0,14.99
10,constitucion,80.0,MX,1570336134.0,72.0,23.99,-104.67,58.11,9.19
11,quelimane,40.0,MZ,1570336134.0,88.0,-17.88,36.89,69.8,2.24
12,east london,90.0,ZA,1570336134.0,100.0,-33.02,27.91,60.8,14.99
13,aksay,17.0,KZ,1570336134.0,30.0,51.17,53.01,48.08,9.22
14,kamaishi,40.0,JP,1570336134.0,56.0,39.28,141.86,68.0,14.99
15,pisco,75.0,PE,1570336135.0,82.0,-13.71,-76.2,63.0,31.14
16,apiai,86.0,BR,1570336135.0,93.0,-24.51,-48.84,63.96,4.45
17,ushuaia,0.0,AR,1570336039.0,85.0,-54.81,-68.31,37.4,5.82
18,rikitea,100.0,PF,1570336135.0,82.0,-23.12,-134.97,72.06,23.06
19,kapaa,1.0,US,1570335961.0,69.0,22.08,-159.32,82.4,12.75
20,grindavik,75.0,IS,1570336135.0,100.0,63.84,-22.43,48.2,17.22
21,cape town,75.0,ZA,1570335900.0,93.0,-33.93,18.42,59.0,6.93
23,tecoanapa,75.0,MX,1570336136.0,78.0,16.99,-99.26,82.4,3.36
24,tasiilaq,100.0,GL,1570336136.0,75.0,65.61,-37.64,42.8,26.4
25,albany,75.0,US,1570336136.0,75.0,42.65,-73.75,45.0,4.7
27,tarazona,33.0,ES,1570336136.0,71.0,41.91,-1.72,60.8,12.75
28,butaritari,0.0,KI,1570336137.0,63.0,3.07,172.79,84.98,4.63
31,jamestown,0.0,AU,1570336137.0,42.0,-33.21,138.6,70.76,16.84
32,vaini,75.0,IN,1570336137.0,83.0,15.34,74.49,73.4,9.17
33,port hardy,20.0,CA,1570336137.0,93.0,50.7,-127.42,46.4,2.24
34,toma,81.0,BF,1570336137.0,60.0,12.76,-2.9,80.73,5.35
35,chapais,20.0,CA,1570336138.0,80.0,49.78,-74.86,39.2,4.7
36,nikolskoye,20.0,RU,1570336138.0,92.0,59.7,30.79,33.01,4.47
38,arraial do cabo,0.0,BR,1570336138.0,85.0,-22.97,-42.02,71.17,14.52
39,atuona,0.0,PF,1570336138.0,73.0,-9.8,-139.03,80.1,13.44
41,mataura,100.0,NZ,1570336139.0,75.0,-46.19,168.86,53.01,10.0
42,busselton,100.0,AU,1570336139.0,50.0,-33.64,115.35,64.99,5.01
43,vao,97.0,EE,1570336139.0,75.0,59.1,26.19,36.38,6.51
44,oranjemund,100.0,ZA,1570336139.0,84.0,-28.55,16.43,57.51,12.39
45,pangnirtung,0.0,CA,1570336139.0,43.0,66.15,-65.72,14.13,5.64
46,cockburn town,100.0,TC,1570336139.0,72.0,21.46,-71.14,82.5,5.14
47,thompson,90.0,CA,1570336140.0,93.0,55.74,-97.86,41.0,2.24
48,aksarka,100.0,RU,1570336104.0,99.0,66.56,67.8,35.64,10.83
49,mackay,75.0,CA,1570336140.0,49.0,53.65,-115.58,48.2,14.99
50,victoria,40.0,BN,1570336140.0,62.0,5.28,115.24,91.4,8.05
51,esperance,90.0,AU,1570336140.0,59.0,-33.86,121.89,60.8,11.41
52,puerto ayora,0.0,EC,1570336140.0,96.0,-0.74,-90.35,64.99,4.0
53,port alfred,0.0,ZA,1570336141.0,87.0,-33.59,26.89,64.99,8.01
54,craig,90.0,US,1570336141.0,29.0,40.52,-107.55,46.4,3.36
55,port elizabeth,90.0,US,1570336141.0,71.0,39.31,-74.98,64.0,3.36
56,harindanga,75.0,IN,1570336141.0,84.0,22.04,88.32,87.8,4.7
57,punta arenas,75.0,CL,1570336141.0,87.0,-53.16,-70.91,42.8,6.93
58,torbat-e jam,0.0,IR,1570336141.0,38.0,35.24,60.63,49.56,0.89
59,geraldton,90.0,CA,1570336142.0,93.0,49.72,-86.95,46.4,13.87
60,khatanga,27.0,RU,1570336142.0,78.0,71.98,102.47,20.99,5.41
61,torbay,40.0,CA,1570336142.0,86.0,47.66,-52.73,39.99,18.34
62,klaksvik,74.0,FO,1570336142.0,87.0,62.23,-6.59,50.0,29.97
63,college,90.0,US,1570336142.0,94.0,64.86,-147.8,33.8,10.29
64,fallon,1.0,US,1570336143.0,65.0,46.84,-105.12,46.0,13.87
65,chodavaram,40.0,IN,1570336143.0,74.0,17.44,81.78,86.0,8.05
66,kodiak,1.0,US,1570336143.0,87.0,39.95,-94.76,53.01,5.64
67,soderhamn,5.0,SE,1570336143.0,81.0,61.3,17.06,26.01,1.99
69,ribeira grande,70.0,PT,1570336143.0,94.0,38.52,-28.7,71.48,19.33
70,tuatapere,91.0,NZ,1570336143.0,75.0,-46.13,167.69,53.01,10.0
71,kurchum,0.0,KZ,1570336144.0,43.0,48.57,83.65,55.59,1.79
73,monroe,75.0,US,1570336144.0,87.0,41.91,-83.4,59.0,5.82
74,sapele,97.0,NG,1570336144.0,97.0,5.89,5.68,73.68,3.23
75,cabo san lucas,5.0,MX,1570335920.0,69.0,22.89,-109.91,80.6,4.7
76,komsomolskiy,100.0,RU,1570336144.0,97.0,67.55,63.78,34.74,13.62
77,hilo,90.0,US,1570336145.0,61.0,19.71,-155.08,82.4,4.7
78,castro,90.0,CL,1570336145.0,100.0,-42.48,-73.76,44.6,13.87
79,gulabpura,0.0,IN,1570336145.0,55.0,25.91,74.66,78.97,5.31
80,puerto cabezas,100.0,NI,1570336145.0,92.0,14.04,-83.39,77.02,2.3
81,lukulu,30.0,ZM,1570336145.0,50.0,-14.38,23.24,71.3,6.93
83,bachaquero,43.0,VE,1570336145.0,62.0,9.96,-71.12,84.93,5.32
84,praia da vitoria,75.0,PT,1570336146.0,88.0,38.73,-27.07,75.2,21.92
85,margate,75.0,AU,1570336021.0,72.0,-43.03,147.26,59.0,14.99
86,chuy,93.0,UY,1570336146.0,80.0,-33.69,-53.46,51.68,6.33
87,norman wells,90.0,CA,1570336146.0,96.0,65.28,-126.83,33.8,12.75
88,hambantota,75.0,LK,1570336146.0,100.0,6.12,81.12,77.0,2.24
89,bisira,100.0,PA,1570336146.0,95.0,8.52,-81.71,69.16,2.88
90,ixtapa,75.0,MX,1570336147.0,83.0,20.71,-105.21,84.0,3.8
91,qaanaaq,100.0,GL,1570336147.0,79.0,77.48,-69.36,23.1,3.04
93,leiyang,100.0,CN,1570336147.0,68.0,26.42,112.85,68.87,4.45
95,lucea,20.0,JM,1570336147.0,69.0,18.44,-78.17,78.8,5.82
96,duldurga,85.0,RU,1570336148.0,49.0,50.67,113.59,45.94,15.99
97,sorland,100.0,NO,1570336148.0,65.0,67.67,12.69,45.27,12.41
98,avarua,100.0,CK,1570336148.0,49.0,-21.21,-159.78,69.8,4.7
99,rocha,100.0,UY,1570336148.0,91.0,-34.48,-54.34,44.17,1.34
100,chokurdakh,43.0,RU,1570336148.0,87.0,70.62,147.9,18.94,7.19
101,dali,100.0,CN,1570336148.0,89.0,34.79,109.94,48.96,4.56
102,touros,40.0,BR,1570336149.0,83.0,-5.2,-35.46,75.2,5.82
103,kurayoshi,75.0,JP,1570336149.0,64.0,35.43,133.83,71.6,19.46
104,almaznyy,40.0,RU,1570336149.0,82.0,48.03,40.04,60.8,20.13
105,bethel,1.0,US,1570336149.0,69.0,60.79,-161.76,39.2,16.11
106,krokeai,40.0,GR,1570336149.0,87.0,36.88,22.55,66.99,5.7
107,saskylakh,88.0,RU,1570336150.0,93.0,71.97,114.09,18.18,3.38
108,lagoa,1.0,PT,1570336150.0,82.0,37.14,-8.45,61.0,1.12
109,saint-ambroise,5.0,CA,1570336150.0,86.0,48.56,-71.32,35.6,3.56
110,manono,71.0,CD,1570336150.0,63.0,-7.3,27.4,74.86,4.07
111,saquarema,0.0,BR,1570336147.0,94.0,-22.93,-42.51,77.0,2.24
112,pevek,100.0,RU,1570336150.0,81.0,69.7,170.27,28.91,16.55
113,serenje,0.0,ZM,1570336151.0,68.0,-13.23,30.22,63.85,5.12
114,andra,90.0,RU,1570336151.0,82.0,62.52,65.89,49.68,11.41
115,banda aceh,100.0,ID,1570335903.0,75.0,5.56,95.32,81.13,7.43
116,isangel,75.0,VU,1570336151.0,65.0,-19.55,169.27,78.8,6.93
117,yangjiang,0.0,CN,1570336151.0,53.0,21.85,111.96,90.0,6.44
118,santa maria del oro,100.0,MX,1570336151.0,76.0,25.95,-105.37,66.96,1.86
119,roald,0.0,NO,1570336151.0,86.0,62.58,6.12,37.4,10.29
120,chara,20.0,GR,1570336152.0,67.0,39.42,22.43,59.0,5.82
121,aleksandrov gay,100.0,RU,1570336152.0,37.0,50.14,48.57,53.93,11.72
122,cherskiy,100.0,RU,1570336152.0,90.0,68.75,161.3,20.32,10.22
123,longyearbyen,75.0,NO,1570336152.0,74.0,78.22,15.63,35.6,3.36
124,jacksonville,75.0,US,1570336152.0,78.0,30.33,-81.66,79.0,6.93
125,ahipara,94.0,NZ,1570336153.0,83.0,-35.17,173.16,68.0,8.05
126,kulhudhuffushi,100.0,MV,1570336153.0,74.0,6.62,73.07,82.64,7.34
127,biltine,92.0,TD,1570336153.0,65.0,14.53,20.93,80.52,7.74
128,lagos,100.0,NG,1570336022.0,95.0,6.46,3.39,73.87,3.44
129,tigzirt,0.0,DZ,1570336153.0,35.0,36.57,4.2,62.64,1.45
130,coihueco,20.0,CL,1570336153.0,93.0,-36.63,-71.83,46.4,3.27
131,flinders,29.0,AU,1570336153.0,57.0,-34.58,150.85,77.0,6.93
132,gra liyia,20.0,GR,1570336154.0,77.0,35.02,25.68,68.0,6.93
134,airai,0.0,TL,1570336154.0,33.0,-8.93,125.41,82.23,9.31
135,namatanai,51.0,PG,1570336154.0,77.0,-3.66,152.44,81.54,8.41
136,namwala,0.0,ZM,1570336154.0,50.0,-15.75,26.45,64.17,5.28
137,teguise,40.0,ES,1570336154.0,78.0,29.06,-13.56,71.6,16.11
138,launceston,90.0,AU,1570336155.0,82.0,-41.43,147.14,57.2,23.04
139,khani,40.0,GE,1570336155.0,93.0,41.96,42.96,60.8,8.05
140,mvuma,0.0,ZW,1570336155.0,65.0,-19.28,30.53,54.69,6.85
141,mayo,75.0,CA,1570336155.0,80.0,63.59,-135.9,32.0,8.05
142,vestmannaeyjar,66.0,IS,1570336155.0,86.0,63.44,-20.27,50.1,18.34
143,tabaquite,20.0,TT,1570336155.0,94.0,10.38,-61.33,77.0,7.76
144,boguchany,100.0,RU,1570336156.0,74.0,58.38,97.46,37.42,7.29
145,sao filipe,58.0,CV,1570336156.0,82.0,14.9,-24.5,77.33,12.84
146,arona,0.0,IT,1570336156.0,93.0,45.76,8.56,59.0,6.93
147,beloha,0.0,MG,1570336156.0,69.0,-25.17,45.06,72.34,13.18
148,coihaique,0.0,CL,1570336156.0,75.0,-45.58,-72.07,42.8,4.7
149,shanghai,20.0,CN,1570336157.0,50.0,31.23,121.49,77.0,4.47
150,aksu,9.0,KZ,1570336157.0,44.0,52.04,76.93,59.0,2.24
151,rongcheng,100.0,CN,1570336157.0,39.0,37.16,122.42,57.99,6.26
152,tual,12.0,ID,1570336158.0,82.0,-5.67,132.75,79.53,16.64
153,iranshahr,0.0,IR,1570336158.0,69.0,27.21,60.69,73.4,4.7
154,dikson,1.0,RU,1570336158.0,72.0,73.51,80.55,23.06,15.01
155,tessalit,82.0,ML,1570336158.0,13.0,20.2,1.01,80.05,0.49
156,townsville,56.0,AU,1570336158.0,51.0,-19.26,146.82,80.6,16.11
157,cingoli,21.0,IT,1570336158.0,93.0,43.37,13.22,55.99,3.36
158,montrose,75.0,GB,1570335863.0,87.0,56.71,-2.47,51.8,17.22
162,ladario,0.0,PT,1570336159.0,93.0,40.7,-7.74,52.0,0.96
163,bluff,0.0,AU,1570336159.0,25.0,-23.58,149.07,86.73,2.57
164,parry sound,100.0,CA,1570336159.0,80.0,45.34,-80.04,50.0,1.01
165,punta alta,90.0,AR,1570336159.0,93.0,-27.46,-55.82,60.8,9.17
166,sutysky,34.0,UA,1570336160.0,100.0,49.05,28.42,37.4,4.47
167,dzilam gonzalez,43.0,MX,1570336160.0,83.0,21.28,-88.93,82.0,1.99
168,forbes,33.0,AU,1570336160.0,10.0,-33.38,148.01,96.01,1.01
170,provideniya,31.0,RU,1570336160.0,73.0,64.42,-173.23,33.03,5.68
171,saint-philippe,1.0,CA,1570336160.0,93.0,45.36,-73.48,46.4,5.82
172,sabha,0.0,LY,1570336161.0,36.0,27.03,14.43,67.45,9.67
174,portland,1.0,US,1570335968.0,75.0,43.66,-70.25,46.99,1.99
175,leningradskiy,100.0,RU,1570336162.0,96.0,69.38,178.42,31.81,34.67
176,farrukhnagar,0.0,IN,1570336162.0,78.0,28.45,76.82,84.99,4.7
177,dulce grande,5.0,MX,1570336162.0,55.0,23.0,-102.17,62.6,8.59
178,hamilton,75.0,CA,1570336163.0,87.0,43.26,-79.87,55.99,8.05
179,new norfolk,75.0,AU,1570336163.0,72.0,-42.78,147.06,64.0,14.99
180,kajaani,90.0,FI,1570336163.0,98.0,64.22,27.73,35.6,4.7
182,bilma,7.0,NE,1570336163.0,17.0,18.69,12.92,86.24,12.66
183,bambous virieux,75.0,MU,1570336163.0,83.0,-20.34,57.76,75.2,9.17
184,lamu,98.0,CN,1570336164.0,85.0,35.77,102.37,42.63,6.73
185,nome,1.0,US,1570336164.0,88.0,30.04,-94.42,80.01,4.09
186,teacapan,26.0,MX,1570336164.0,77.0,22.54,-105.74,84.62,13.11
187,nova vicosa,0.0,BR,1570336164.0,85.0,-17.89,-39.37,73.1,8.8
188,kavieng,0.0,PG,1570336164.0,65.0,-2.57,150.8,84.46,3.36
189,la rioja,38.0,AR,1570335951.0,74.0,-29.41,-66.86,48.35,4.05
190,namibe,72.0,AO,1570336165.0,78.0,-15.19,12.15,66.94,7.47
192,hun,100.0,BE,1570336165.0,93.0,50.34,4.87,52.0,9.17
193,gandorhun,90.0,SL,1570336165.0,99.0,8.44,-10.86,68.8,0.36
194,laguna,40.0,BZ,1570336165.0,94.0,16.17,-88.94,77.0,1.74
195,mahebourg,75.0,MU,1570336165.0,83.0,-20.41,57.7,75.2,9.17
196,leh,19.0,IN,1570336166.0,35.0,34.16,77.58,32.64,2.28
197,gbadolite,100.0,CD,1570336166.0,95.0,4.28,21.0,69.52,1.07
198,jalu,0.0,LY,1570336166.0,75.0,29.03,21.55,65.18,9.89
200,ambilobe,0.0,MG,1570336166.0,81.0,-13.19,49.05,73.32,7.59
201,woodstock,75.0,CA,1570336166.0,93.0,43.13,-80.75,51.01,6.93
202,karla,75.0,EE,1570336166.0,60.0,59.37,24.93,42.01,5.82
203,port blair,40.0,IN,1570336167.0,66.0,11.67,92.75,86.0,4.7
204,vilcun,90.0,CL,1570336167.0,81.0,-38.65,-72.23,48.2,4.7
205,okhotsk,0.0,RU,1570336167.0,40.0,59.36,143.24,35.17,11.25
206,plouzane,64.0,FR,1570336167.0,100.0,48.38,-4.62,57.2,5.82
207,clyde river,1.0,CA,1570336167.0,68.0,70.47,-68.59,28.4,10.29
208,lebu,75.0,ET,1570336168.0,87.0,8.96,38.73,57.2,4.7
209,rivadavia,37.0,AR,1570336168.0,33.0,-31.53,-68.59,45.07,2.33
210,rio gallegos,75.0,AR,1570336168.0,75.0,-51.62,-69.22,42.8,10.29
212,upernavik,100.0,GL,1570336168.0,98.0,72.79,-56.15,32.71,18.3
214,kahului,40.0,US,1570336168.0,74.0,20.89,-156.47,80.6,12.75
215,nador,0.0,MA,1570336166.0,72.0,35.17,-2.93,62.6,6.93
216,champerico,40.0,MX,1570336169.0,88.0,16.38,-93.6,73.4,2.24
217,rudsar,40.0,IR,1570336169.0,82.0,37.14,50.29,66.2,4.7
218,nioro,100.0,GM,1570336169.0,88.0,13.79,-15.05,76.57,8.08
219,durham,75.0,GB,1570336169.0,100.0,54.78,-1.58,51.01,5.82
220,yuzhnyy,100.0,RU,1570336169.0,95.0,53.54,39.45,41.62,21.68
221,hasaki,75.0,JP,1570336170.0,82.0,35.73,140.83,68.0,17.22
222,tabas,0.0,IR,1570336170.0,21.0,33.6,56.92,60.8,2.24
223,sistranda,20.0,NO,1570336170.0,74.0,63.73,8.83,37.0,17.22
224,binga,0.0,ZW,1570336170.0,33.0,-17.62,27.34,68.1,4.14
225,port macquarie,87.0,AU,1570336170.0,56.0,-31.43,152.91,73.4,19.46
226,vyshneve,75.0,UA,1570336171.0,93.0,50.39,30.37,44.01,8.95
227,dingle,39.0,PH,1570336171.0,72.0,11.0,122.67,84.82,6.62
228,harper,1.0,US,1570336171.0,53.0,30.3,-99.24,77.0,8.16
229,port lincoln,95.0,AU,1570336171.0,85.0,-34.72,135.86,57.78,15.48
230,tabou,100.0,CI,1570336171.0,95.0,4.42,-7.36,74.52,3.1
231,tuktoyaktuk,40.0,CA,1570336171.0,81.0,69.44,-133.03,32.0,10.29
232,caravelas,0.0,BR,1570336172.0,85.0,-17.73,-39.27,73.1,8.81
233,aleksandrovka,100.0,RU,1570336172.0,76.0,54.24,50.04,51.9,7.7
234,mount isa,3.0,AU,1570336172.0,10.0,-20.73,139.49,91.4,8.05
236,tiksi,95.0,RU,1570336172.0,89.0,71.64,128.87,19.6,4.47
238,sao felix do xingu,13.0,BR,1570336172.0,93.0,-6.64,-51.99,71.61,1.52
239,fortuna,1.0,US,1570336173.0,87.0,40.6,-124.16,55.0,14.29
240,rocky mountain house,75.0,CA,1570336173.0,58.0,52.38,-114.92,41.96,5.84
241,oksfjord,100.0,NO,1570336173.0,86.0,70.24,22.35,41.0,13.87
242,mayumba,100.0,GA,1570336173.0,89.0,-3.44,10.65,76.12,13.04
243,shebunino,0.0,RU,1570336173.0,87.0,57.66,40.04,32.0,4.47
244,marzuq,25.0,YE,1570336174.0,45.0,14.4,46.47,71.46,3.91
245,salalah,40.0,OM,1570336174.0,78.0,17.01,54.1,80.6,4.7
246,zaraza,55.0,VE,1570336174.0,93.0,9.35,-65.33,73.87,5.08
247,agirish,95.0,RU,1570336174.0,79.0,61.92,63.02,45.38,9.85
249,coquimbo,0.0,CL,1570336174.0,87.0,-29.95,-71.34,51.8,9.17
251,strezhevoy,0.0,RU,1570336175.0,76.0,60.73,77.6,53.6,8.95
252,lavrentiya,100.0,RU,1570336175.0,95.0,65.58,-170.99,32.67,10.51
253,sosnovo-ozerskoye,65.0,RU,1570336175.0,47.0,52.53,111.54,41.71,23.89
254,acajutla,100.0,SV,1570336175.0,74.0,13.59,-89.83,82.86,2.9
255,axim,34.0,GH,1570336175.0,90.0,4.87,-2.24,76.41,8.1
256,cotonou,75.0,BJ,1570336175.0,100.0,6.37,2.43,75.2,2.24
258,port-cartier,5.0,CA,1570336176.0,76.0,50.03,-66.88,39.99,3.36
259,malpe,75.0,IN,1570336176.0,88.0,13.35,74.72,77.0,4.7
260,kumluca,0.0,TR,1570336176.0,80.0,36.37,30.29,47.83,4.27
262,cidreira,100.0,BR,1570336176.0,88.0,-30.17,-50.22,60.84,10.42
263,vila franca do campo,75.0,PT,1570336176.0,100.0,37.72,-25.43,73.99,11.41
264,pindushi,0.0,RU,1570336177.0,96.0,62.92,34.58,25.29,4.34
265,namtsy,75.0,RU,1570336177.0,69.0,62.72,129.66,33.8,6.71
266,kruisfontein,1.0,ZA,1570336177.0,90.0,-34.0,24.73,56.56,19.1
267,riyadh,0.0,SA,1570336177.0,41.0,24.63,46.72,78.8,2.24
268,nelson bay,94.0,AU,1570336177.0,53.0,-32.72,152.14,77.0,8.05
269,nouadhibou,0.0,MR,1570336178.0,82.0,20.93,-17.03,68.0,10.29
270,dongkan,96.0,CN,1570336178.0,51.0,34.0,119.83,65.68,3.67
271,bridlington,100.0,GB,1570336178.0,100.0,54.08,-0.19,53.01,10.29
272,itarema,53.0,BR,1570336178.0,77.0,-2.92,-39.92,77.15,8.37
274,orsk,0.0,RU,1570336178.0,60.0,51.23,58.47,39.2,2.24
275,conceicao do araguaia,100.0,BR,1570336178.0,91.0,-8.26,-49.26,72.76,3.29
276,calvinia,90.0,ZA,1570336179.0,93.0,-31.47,19.78,44.6,2.24
277,hirara,20.0,JP,1570336179.0,62.0,24.8,125.28,84.2,16.11
278,vilhena,100.0,BR,1570336179.0,98.0,-12.74,-60.15,70.31,4.52
279,ust-kan,3.0,RU,1570336179.0,46.0,50.93,84.77,46.93,2.82
280,clonakilty,40.0,IE,1570336179.0,87.0,51.62,-8.87,50.0,13.87
281,ingham,97.0,AU,1570336180.0,38.0,-18.65,146.16,81.65,7.7
282,rosarito,40.0,CO,1570336180.0,94.0,4.91,-75.23,68.0,2.24
283,lucapa,6.0,AO,1570336180.0,94.0,-8.42,20.74,65.34,3.33
284,saint anthony,40.0,US,1570336180.0,74.0,43.97,-111.68,37.4,5.82
285,maceio,20.0,BR,1570336180.0,94.0,-9.67,-35.74,69.8,1.12
286,shingu,20.0,JP,1570336180.0,48.0,33.72,135.99,82.4,14.99
287,kathu,0.0,ZA,1570336181.0,35.0,-27.7,23.05,64.99,1.72
288,colesberg,0.0,ZA,1570336181.0,9.0,-30.72,25.1,56.9,7.31
289,adana,75.0,TR,1570336181.0,94.0,37.0,35.33,71.6,6.93
290,vostok,0.0,RU,1570336181.0,42.0,46.45,135.83,50.71,9.17
292,nanortalik,93.0,GL,1570336181.0,85.0,60.14,-45.24,41.51,1.62
293,ati,78.0,TD,1570336182.0,72.0,13.21,18.34,78.28,6.93
294,mponela,20.0,MW,1570336182.0,72.0,-13.53,33.74,68.0,14.99
297,daltenganj,5.0,IN,1570336182.0,78.0,24.03,84.07,79.35,0.92
298,shuyskoye,100.0,RU,1570336182.0,96.0,59.37,41.03,29.02,2.82
299,camacha,40.0,PT,1570336183.0,78.0,33.08,-16.33,71.6,11.41
300,hongjiang,82.0,CN,1570336183.0,64.0,27.21,109.83,72.97,4.81
301,lompoc,1.0,US,1570336183.0,62.0,34.64,-120.46,61.0,4.7
302,sorong,2.0,ID,1570336183.0,78.0,-0.86,131.25,83.36,5.12
303,zambezi,3.0,ZM,1570336183.0,62.0,-13.55,23.12,65.27,3.56
305,guerrero negro,0.0,MX,1570336184.0,53.0,27.97,-114.04,71.55,15.17
306,temyasovo,61.0,RU,1570336184.0,48.0,52.99,58.1,42.8,4.47
307,kyabe,99.0,TD,1570336184.0,98.0,9.45,18.94,68.65,3.89
308,ambunti,89.0,PG,1570336184.0,55.0,-4.22,142.82,92.14,1.55
309,meyzieu,0.0,FR,1570336184.0,87.0,45.78,5.0,57.2,2.24
310,leshukonskoye,79.0,RU,1570336185.0,96.0,64.9,45.76,28.06,5.59
311,topeka,1.0,US,1570335995.0,93.0,39.05,-95.68,55.99,4.27
312,moron,100.0,HT,1570336185.0,76.0,18.56,-74.26,80.25,1.07
313,ancud,90.0,CL,1570336185.0,100.0,-41.87,-73.83,44.6,13.87
314,yellowknife,75.0,CA,1570336106.0,93.0,62.45,-114.38,39.2,3.36
316,saint-joseph,0.0,FR,1570336185.0,87.0,43.56,6.97,61.0,6.93
318,lorengau,51.0,PG,1570336186.0,61.0,-2.02,147.27,86.69,5.17
319,ponta do sol,47.0,BR,1570336186.0,70.0,-20.63,-46.0,69.09,6.19
320,guayaramerin,67.0,BO,1570336186.0,90.0,-10.82,-65.36,73.91,1.43
321,mumford,58.0,GH,1570336186.0,97.0,5.26,-0.76,71.86,3.89
323,buea,75.0,CM,1570336186.0,100.0,4.16,9.23,77.0,13.06
324,chicama,90.0,PE,1570336187.0,87.0,-7.84,-79.15,60.8,10.29
325,husavik,100.0,CA,1570336187.0,95.0,50.56,-96.99,43.0,5.99
326,saint george,20.0,GR,1570336187.0,67.0,39.45,22.34,59.0,5.82
327,idaho falls,1.0,US,1570335963.0,74.0,43.49,-112.04,37.4,3.36
328,hithadhoo,92.0,MV,1570336187.0,73.0,-0.6,73.08,82.57,11.05
329,mount pleasant,1.0,US,1570336058.0,83.0,33.16,-94.97,75.99,4.7
331,manuk mangkaw,90.0,PH,1570336187.0,72.0,4.8,119.85,82.5,0.65
332,sovetskiy,100.0,RU,1570336188.0,88.0,56.76,48.47,39.03,6.44
333,atar,0.0,MR,1570336188.0,11.0,20.52,-13.05,88.78,4.21
334,suraabad,0.0,AZ,1570336188.0,73.0,40.82,49.47,71.6,14.99
336,swan river,94.0,CA,1570336188.0,72.0,52.11,-101.27,48.71,13.75
337,kieta,0.0,PG,1570336188.0,69.0,-6.22,155.63,84.62,8.1
338,elizabeth city,40.0,US,1570336189.0,77.0,36.3,-76.22,70.0,10.29
339,ampanihy,0.0,MG,1570336189.0,64.0,-24.69,44.75,72.97,10.02
340,estelle,0.0,FR,1570336189.0,72.0,43.97,3.47,59.0,3.36
341,brownsville,1.0,US,1570335913.0,78.0,25.91,-97.49,82.99,3.36
342,havre-saint-pierre,20.0,CA,1570336189.0,69.0,50.23,-63.6,37.4,6.93
343,yatou,75.0,CM,1570336189.0,100.0,3.63,9.81,77.0,2.73
344,santa fe,0.0,AR,1570336190.0,69.0,-31.62,-60.7,57.99,3.71
345,samana,100.0,EC,1570336190.0,91.0,0.12,-76.97,71.53,3.27
346,albanel,5.0,CA,1570336159.0,93.0,48.88,-72.44,35.6,3.18
347,yumen,20.0,CN,1570336190.0,26.0,40.29,97.04,53.14,17.68
348,hualmay,57.0,PE,1570336190.0,91.0,-11.1,-77.61,60.46,17.92
349,lasa,40.0,CY,1570336190.0,73.0,34.92,32.53,75.2,14.99
350,vestmanna,89.0,FO,1570336191.0,87.0,62.16,-7.17,50.0,29.97
351,rawson,11.0,AR,1570336191.0,59.0,-43.3,-65.11,52.67,11.84
352,moquegua,0.0,PE,1570336191.0,59.0,-17.19,-70.93,48.03,3.94
353,vardo,90.0,US,1570336191.0,58.0,39.62,-77.74,60.8,14.99
354,chittaurgarh,0.0,IN,1570336191.0,64.0,24.88,74.62,77.44,2.98
355,westport,90.0,US,1570336191.0,58.0,41.14,-73.36,55.99,8.05
356,barabai,1.0,ID,1570336192.0,36.0,-2.59,115.38,101.04,1.48
358,areia branca,40.0,BR,1570336192.0,78.0,-10.76,-37.31,75.2,6.93
359,soanierana ivongo,75.0,MG,1570336192.0,88.0,-16.92,49.59,77.0,6.93
360,kenai,1.0,US,1570336192.0,70.0,60.55,-151.26,46.0,12.75
361,alofi,53.0,NU,1570336192.0,64.0,-19.06,-169.92,75.2,16.11
362,gornopravdinsk,88.0,RU,1570336193.0,87.0,60.06,69.92,49.23,10.29
363,faanui,2.0,PF,1570336193.0,77.0,-16.48,-151.75,79.4,12.1
365,nanakuli,75.0,US,1570336193.0,78.0,21.39,-158.15,82.4,6.93
367,aguas vermelhas,0.0,BR,1570336193.0,93.0,-15.75,-41.46,61.22,3.02
368,kerema,42.0,PG,1570336193.0,85.0,-7.96,145.78,78.97,12.01
369,krumbach,40.0,DE,1570336194.0,100.0,48.24,10.36,44.01,3.36
370,meiganga,100.0,CM,1570336194.0,97.0,6.52,14.29,64.12,1.77
371,liverpool,100.0,GB,1570336194.0,87.0,53.41,-2.98,55.99,10.29
372,birnin kebbi,100.0,NG,1570336194.0,85.0,12.45,4.2,73.93,17.96
373,horadiz,75.0,AZ,1570336194.0,100.0,39.45,47.33,64.4,9.17
374,pochutla,100.0,MX,1570336195.0,94.0,15.74,-96.47,75.0,1.28
375,scarborough,100.0,GB,1570336195.0,100.0,54.28,-0.41,53.01,10.29
376,dogondoutchi,100.0,NE,1570336195.0,67.0,13.64,4.03,81.31,18.72
377,beachwood,1.0,US,1570336104.0,58.0,41.46,-81.51,60.8,11.41
378,hofn,100.0,IS,1570336195.0,99.0,64.25,-15.21,39.15,8.28
379,monte alegre,2.0,BR,1570336195.0,77.0,-2.0,-54.07,78.88,1.39
380,cap malheureux,75.0,MU,1570336196.0,83.0,-19.98,57.61,75.2,9.17
381,souillac,75.0,FR,1570336196.0,93.0,45.6,-0.6,60.01,3.36
382,neiafu,75.0,TO,1570336196.0,69.0,-18.65,-173.98,77.0,5.82
383,grand gaube,75.0,MU,1570336196.0,83.0,-20.01,57.66,75.2,9.17
384,carnarvon,27.0,ZA,1570336196.0,26.0,-30.97,22.13,55.46,4.63
385,kuala terengganu,75.0,MY,1570336197.0,70.0,5.33,103.14,87.8,5.82
386,puerto baquerizo moreno,97.0,EC,1570336197.0,85.0,-0.9,-89.6,68.6,13.94
387,hildburghausen,40.0,DE,1570336197.0,93.0,50.43,10.73,39.2,2.24
388,nokaneng,32.0,BW,1570336197.0,43.0,-19.66,22.19,69.18,4.49
389,alyangula,0.0,AU,1570336197.0,55.0,-13.85,136.42,86.0,11.41
390,bayji,63.0,IQ,1570336197.0,31.0,34.93,43.49,71.62,6.51
391,yemelyanovo,75.0,RU,1570336198.0,81.0,56.17,92.69,48.2,2.24
392,caucaia,75.0,BR,1570336198.0,74.0,-3.73,-38.66,79.0,12.75
393,nyrob,57.0,RU,1570336198.0,88.0,60.74,56.73,36.83,6.04
394,ledyard,1.0,US,1570336198.0,93.0,41.44,-72.02,46.0,3.13
395,gat,20.0,SN,1570336198.0,88.0,14.69,-16.54,78.8,3.36
396,nizwa,0.0,OM,1570336198.0,67.0,22.93,57.53,71.84,2.58
397,nusaybin,0.0,TR,1570336199.0,51.0,37.08,41.21,60.8,4.45
399,kitimat,75.0,CA,1570336199.0,76.0,54.02,-128.69,48.2,18.34
400,sindal,0.0,DK,1570336199.0,91.0,57.48,10.2,35.01,6.33
401,ariquemes,93.0,BR,1570336199.0,73.0,-9.91,-63.03,74.9,1.68
402,taltal,0.0,CL,1570336199.0,77.0,-25.41,-70.49,50.71,3.76
403,ambulu,66.0,ID,1570336200.0,85.0,-8.35,113.61,73.98,8.34
404,naron,90.0,ES,1570336200.0,100.0,43.52,-8.15,60.01,3.36
405,angoche,8.0,MZ,1570336200.0,91.0,-16.23,39.91,71.93,2.04
406,talnakh,75.0,RU,1570336200.0,84.0,69.49,88.39,33.8,6.71
407,san miguel,0.0,AR,1570336200.0,62.0,-34.54,-58.72,55.4,4.7
408,namanyere,90.0,TZ,1570336200.0,70.0,-7.51,31.05,64.15,9.04
409,soe,0.0,EE,1570336201.0,100.0,57.91,26.05,28.4,4.7
410,ilulissat,100.0,GL,1570336201.0,93.0,69.22,-51.1,35.6,12.75
411,severo-kurilsk,100.0,RU,1570336201.0,72.0,50.68,156.12,43.62,41.72
412,vawkavysk,0.0,BY,1570336201.0,92.0,53.15,24.45,30.2,8.95
413,trincomalee,72.0,LK,1570336201.0,42.0,8.58,81.23,96.23,0.98
416,cayenne,0.0,GF,1570336202.0,100.0,4.94,-52.33,73.4,4.0
417,falkenberg,90.0,DE,1570336202.0,93.0,49.86,12.22,39.99,5.82
418,nova prata,100.0,BR,1570336202.0,99.0,-28.78,-51.61,57.0,3.78
419,fomboni,4.0,KM,1570336202.0,75.0,-12.28,43.74,79.92,7.31
420,porbandar,20.0,IN,1570336203.0,74.0,21.64,69.61,84.2,9.17
421,gazanjyk,65.0,TM,1570336203.0,19.0,39.24,55.52,75.71,19.01
422,deniliquin,25.0,AU,1570336203.0,33.0,-35.53,144.96,79.83,16.15
424,dubovskoye,97.0,RU,1570336203.0,70.0,47.41,42.76,65.79,8.5
425,puerto narino,85.0,CO,1570336203.0,100.0,-3.77,-70.38,75.2,1.75
426,pontivy,75.0,FR,1570336204.0,100.0,48.06,-2.97,57.99,8.05
427,karratha,0.0,AU,1570336204.0,13.0,-20.74,116.85,98.19,15.88
428,mahajanga,20.0,MG,1570336204.0,51.0,-15.72,46.32,82.4,9.17
429,baykalsk,100.0,RU,1570336204.0,69.0,51.52,104.15,42.47,4.46
430,terekli-mekteb,17.0,RU,1570336205.0,72.0,44.16,45.87,67.95,7.05
431,poso,10.0,ID,1570336205.0,79.0,-1.4,120.75,72.96,4.65
432,buraydah,0.0,SA,1570336205.0,41.0,26.33,43.97,78.8,4.7
433,uchaly,63.0,RU,1570336206.0,42.0,54.32,59.38,50.71,3.09
434,obihiro,20.0,JP,1570336206.0,54.0,42.92,143.2,57.2,3.36
435,boca do acre,6.0,BR,1570336206.0,77.0,-8.76,-67.39,74.09,1.07
436,thinadhoo,94.0,MV,1570336206.0,72.0,0.53,72.93,82.26,9.86
438,goundam,78.0,ML,1570336206.0,36.0,16.42,-3.66,89.05,5.63
439,wanaka,69.0,NZ,1570335992.0,41.0,-44.7,169.14,62.01,1.99
440,codrington,44.0,AU,1570336207.0,44.0,-28.95,153.24,84.2,12.75
441,sinnamary,0.0,GF,1570336207.0,79.0,5.38,-52.96,81.47,12.71
442,moose factory,90.0,CA,1570336207.0,61.0,51.26,-80.61,50.0,14.99
443,udachnyy,90.0,RU,1570336207.0,92.0,66.42,112.4,28.4,8.95
444,yanam,40.0,IN,1570336207.0,74.0,16.73,82.22,86.0,8.05
446,kampot,40.0,KH,1570336208.0,79.0,10.62,104.18,86.0,4.7
447,belmonte,25.0,PT,1570336208.0,79.0,40.36,-7.35,52.0,1.79
448,inawashiro,75.0,JP,1570336208.0,88.0,37.55,140.1,66.99,11.41
449,newberry,90.0,US,1570336208.0,87.0,46.35,-85.51,55.4,14.99
450,port-gentil,100.0,GA,1570336208.0,84.0,-0.72,8.78,78.92,14.03
451,dresden,75.0,DE,1570336209.0,93.0,51.05,13.74,41.0,2.24
452,rochegda,99.0,RU,1570336209.0,90.0,62.67,43.41,35.72,8.19
453,campos sales,12.0,BR,1570336209.0,66.0,-7.07,-40.37,69.77,8.72
454,upington,0.0,ZA,1570336209.0,27.0,-28.46,21.24,62.6,5.82
455,ostrovnoy,96.0,RU,1570336209.0,83.0,68.05,39.51,32.64,8.48
456,karpathos,20.0,GR,1570336210.0,64.0,35.51,27.21,73.4,19.46
457,yining,66.0,CN,1570336210.0,51.0,29.04,114.56,84.78,2.19
458,carballo,90.0,ES,1570336210.0,100.0,43.21,-8.69,61.0,3.36
459,sept-iles,5.0,CA,1570336210.0,84.0,50.2,-66.38,39.99,3.36
460,makungu,100.0,TZ,1570336210.0,91.0,-8.74,35.29,58.92,8.43
461,nalut,0.0,LY,1570336210.0,32.0,31.86,10.98,65.74,6.44
462,amapa,75.0,HN,1570336211.0,88.0,15.09,-87.97,80.6,5.82
463,vila,21.0,IT,1570336211.0,93.0,45.18,8.4,57.99,4.7
464,dubti,22.0,ET,1570336211.0,44.0,11.74,41.09,88.13,5.17
466,sungaipenuh,97.0,ID,1570336211.0,64.0,-2.08,101.38,84.68,6.22
469,broken hill,0.0,AU,1570336212.0,11.0,-31.97,141.45,93.2,25.28
470,nuuk,93.0,GL,1570336212.0,74.0,64.17,-51.74,33.8,8.05
471,saldanha,17.0,PT,1570336212.0,76.0,41.42,-6.55,51.97,0.81
472,jumla,76.0,NP,1570336212.0,38.0,29.28,82.18,67.07,5.55
473,kirakira,100.0,SB,1570336212.0,83.0,-10.46,161.92,80.79,14.83
474,bonavista,36.0,CA,1570336213.0,82.0,48.65,-53.11,39.99,15.99
475,lata,54.0,IN,1570336213.0,50.0,30.78,78.62,45.2,9.33
476,ust-tsilma,92.0,RU,1570336213.0,92.0,65.44,52.15,32.48,7.31
477,nizhniy tsasuchey,100.0,RU,1570336213.0,39.0,50.52,115.13,53.59,24.04
478,caconda,99.0,AO,1570336213.0,55.0,-13.73,15.06,69.95,1.45
479,dombarovskiy,0.0,RU,1570336213.0,24.0,50.76,59.54,59.98,6.98
480,bakchar,32.0,RU,1570336214.0,78.0,57.02,82.07,58.9,5.36
481,bafq,0.0,IR,1570336214.0,16.0,31.6,55.4,71.99,4.05
482,santiago,98.0,PH,1570336214.0,84.0,16.69,121.54,80.61,3.19
483,komsomolets,100.0,RU,1570336214.0,84.0,52.77,41.29,55.64,15.32
484,asyut,0.0,EG,1570336214.0,11.0,27.18,31.19,82.43,13.0
485,gore,100.0,ET,1570336215.0,91.0,8.15,35.53,60.39,2.3
486,bandarbeyla,40.0,SO,1570336215.0,56.0,9.49,50.81,84.26,13.65
487,tigil,100.0,RU,1570336215.0,83.0,57.8,158.67,37.14,19.98
488,berlevag,100.0,NO,1570336215.0,80.0,70.86,29.09,42.7,21.09
489,saint-pierre,75.0,FR,1570336215.0,100.0,48.95,4.24,57.2,8.05
490,shitanjing,93.0,CN,1570336215.0,46.0,39.23,106.34,57.99,1.99
491,balad,66.0,ID,1570336216.0,33.0,-6.76,108.42,89.64,10.09
492,brae,98.0,GB,1570336216.0,81.0,60.4,-1.35,51.8,26.4
493,atikokan,100.0,CA,1570336216.0,92.0,48.76,-91.62,42.84,12.37
495,avera,90.0,US,1570336216.0,77.0,33.19,-82.53,72.0,6.93
496,siderno,40.0,IT,1570336216.0,88.0,38.28,16.3,73.0,4.7
497,pedernales,89.0,EC,1570336217.0,82.0,0.07,-80.05,74.2,12.68
498,chernyshevskiy,100.0,RU,1570336217.0,96.0,63.01,112.47,32.4,10.1
499,jinchang,100.0,CN,1570336217.0,77.0,38.52,102.19,43.58,2.55
500,formosa,3.0,BR,1570336217.0,67.0,-15.55,-47.33,66.33,3.09
501,georgetown,20.0,GY,1570336217.0,100.0,6.8,-58.16,75.2,2.24
502,zhezkazgan,0.0,KZ,1570336218.0,18.0,47.8,67.71,53.6,8.95
503,linjiang,53.0,CN,1570336218.0,57.0,41.81,126.91,50.49,7.34
504,altay,0.0,CN,1570336218.0,22.0,47.83,88.13,53.63,6.06
505,ionia,90.0,US,1570336218.0,87.0,42.99,-85.07,55.99,10.29
506,mirnyy,100.0,RU,1570336218.0,84.0,56.57,36.46,35.07,11.23
507,waipawa,99.0,NZ,1570336218.0,70.0,-39.94,176.59,51.01,5.99
508,tazovskiy,100.0,RU,1570336219.0,94.0,67.47,78.7,35.72,27.58
509,barcelona,75.0,ES,1570336110.0,82.0,41.38,2.18,69.01,3.36
510,goderich,100.0,CA,1570336219.0,85.0,43.74,-81.71,53.01,15.01
511,faya,0.0,SA,1570336219.0,51.0,18.39,42.45,66.2,11.68
512,lodwar,4.0,KE,1570336219.0,46.0,3.12,35.6,84.59,17.86
513,richmond,20.0,CA,1570335992.0,87.0,49.16,-123.14,51.01,2.44
514,egvekinot,52.0,RU,1570336220.0,75.0,66.32,-179.17,18.71,8.5
515,vila velha,75.0,BR,1570336220.0,74.0,-3.71,-38.6,79.0,12.75
516,itoman,20.0,JP,1570336220.0,66.0,26.12,127.67,89.6,13.87
517,svetlogorsk,60.0,RU,1570336221.0,48.0,53.14,59.15,42.8,4.47
518,petropavlovsk-kamchatskiy,75.0,RU,1570336221.0,100.0,53.05,158.65,37.4,11.18
519,mlonggo,20.0,ID,1570336221.0,41.0,-6.53,110.7,91.4,10.29
521,san quintin,38.0,PH,1570336222.0,74.0,17.54,120.52,83.11,6.67
522,gusau,100.0,NG,1570336222.0,95.0,12.17,6.66,70.89,11.75
523,antofagasta,90.0,CL,1570336222.0,71.0,-23.65,-70.4,55.4,9.17
524,kaitangata,66.0,NZ,1570336222.0,67.0,-46.28,169.85,52.0,11.99
525,tamandare,85.0,BR,1570336222.0,91.0,-8.28,-70.75,71.99,1.45
526,sur,0.0,OM,1570336223.0,49.0,22.57,59.53,88.53,13.64
528,sitka,0.0,US,1570336223.0,69.0,37.17,-99.65,54.0,8.01
529,letlhakeng,14.0,BW,1570336223.0,24.0,-24.1,25.03,75.26,9.48
530,kikwit,6.0,CD,1570336223.0,84.0,-5.04,18.82,75.87,1.03
531,chifeng,100.0,CN,1570336224.0,27.0,42.27,118.96,58.22,6.35
532,kerikeri,77.0,NZ,1570336224.0,87.0,-35.23,173.95,68.0,4.0
533,bambanglipuro,18.0,ID,1570336224.0,79.0,-7.95,110.28,77.22,11.83
534,olinda,75.0,AU,1570336224.0,41.0,-37.84,145.39,75.99,19.46
535,gannan,0.0,CN,1570336224.0,24.0,47.92,123.49,64.88,13.28
536,yulara,0.0,AU,1570336224.0,10.0,-25.24,130.99,95.0,5.82
537,aklavik,75.0,CA,1570336225.0,64.0,68.22,-135.01,33.8,13.51
538,quatre cocos,75.0,MU,1570336225.0,83.0,-20.21,57.76,75.2,9.17
539,dreux,100.0,FR,1570336225.0,100.0,48.74,1.37,57.0,8.05
540,yarada,20.0,IN,1570336225.0,74.0,17.65,83.27,86.0,5.82
541,kidal,91.0,ML,1570335964.0,22.0,18.44,1.41,91.98,20.07
542,guangyuan,100.0,CN,1570336225.0,77.0,32.43,105.86,66.0,1.99
543,kenora,90.0,CA,1570336226.0,93.0,49.76,-94.48,42.8,11.41
545,lakatoro,100.0,VU,1570336226.0,100.0,-16.11,167.42,78.8,6.93
546,hutang,91.0,CN,1570336226.0,65.0,29.22,119.85,79.0,3.46
547,hibbing,90.0,US,1570336226.0,87.0,47.43,-92.94,44.6,10.29
548,san ramon de la nueva oran,100.0,AR,1570336226.0,74.0,-23.13,-64.33,57.06,1.81
549,abhar,26.0,IR,1570336227.0,22.0,36.14,49.22,64.53,4.72
551,tura,95.0,RU,1570336227.0,61.0,64.27,100.22,34.71,12.95
552,rio grande,100.0,BR,1570335997.0,94.0,-32.03,-52.1,54.0,1.01
553,along,7.0,IN,1570336227.0,82.0,28.17,94.8,67.41,4.85
554,san cristobal,93.0,HN,1570336227.0,93.0,14.68,-86.92,66.35,2.15
555,fuyang,100.0,CN,1570336227.0,92.0,32.89,115.81,53.41,11.1
556,afrikanda,97.0,RU,1570336228.0,90.0,67.44,32.78,33.65,8.5
557,maldonado,35.0,UY,1570336228.0,100.0,-34.91,-54.96,46.4,2.24
558,krishnarajpet,40.0,IN,1570336228.0,78.0,12.65,76.49,77.0,3.36
559,iqaluit,75.0,CA,1570336228.0,83.0,63.75,-68.52,32.0,4.7
560,aguimes,75.0,ES,1570336228.0,78.0,27.91,-15.45,71.6,23.04
562,magadan,95.0,RU,1570336229.0,59.0,59.56,150.8,34.4,8.16
563,katangli,33.0,RU,1570336229.0,53.0,51.71,143.23,48.03,11.74
564,gravdal,0.0,NO,1570336229.0,68.0,59.79,5.78,39.99,10.29
565,aldan,100.0,RU,1570336229.0,98.0,58.61,125.39,35.09,2.86
566,witu,40.0,KE,1570336229.0,94.0,-2.39,40.44,77.0,9.51
567,sri aman,75.0,MY,1570336230.0,70.0,1.24,111.46,87.8,2.24
568,jega,100.0,NG,1570336230.0,96.0,12.22,4.38,71.41,1.68
569,bauska,34.0,LV,1570336230.0,100.0,56.41,24.19,33.8,4.1
572,vagay,52.0,RU,1570336230.0,62.0,57.94,69.02,55.39,8.48
573,chumikan,100.0,RU,1570336230.0,96.0,54.72,135.31,34.33,3.36
574,maryville,20.0,US,1570336231.0,73.0,35.76,-83.97,73.4,5.82
575,santa cruz,83.0,BR,1570335977.0,83.0,-6.22,-36.02,69.34,16.69
576,krasnyy chikoy,87.0,RU,1570336231.0,64.0,50.36,108.75,44.05,12.97
577,marsh harbour,15.0,BS,1570336231.0,78.0,26.54,-77.06,80.57,16.62
578,xining,100.0,CN,1570336231.0,88.0,36.62,101.77,40.56,3.98
579,huarmey,28.0,PE,1570336232.0,94.0,-10.07,-78.15,56.49,1.06
580,ileza,97.0,RU,1570336232.0,85.0,61.05,43.9,35.77,5.66
581,gijon,75.0,ES,1570336232.0,93.0,43.54,-5.66,62.01,6.93
582,juegang,7.0,CN,1570336232.0,57.0,32.31,121.18,77.0,8.34
584,constantine,0.0,DZ,1570336232.0,81.0,36.36,6.61,51.8,0.45
585,fukue,20.0,JP,1570336232.0,57.0,35.03,136.69,78.8,20.8
587,batemans bay,51.0,AU,1570336233.0,82.0,-35.71,150.18,80.01,18.01
588,saint-leu,0.0,RE,1570336233.0,69.0,-21.15,55.28,79.0,11.41
590,maniitsoq,45.0,GL,1570336233.0,75.0,65.42,-52.9,35.52,32.37
591,padang,97.0,ID,1570336233.0,79.0,-0.92,100.36,76.76,3.85
592,pekan,75.0,MY,1570336233.0,62.0,3.49,103.39,89.6,3.36
593,mocuba,0.0,MZ,1570336234.0,60.0,-16.84,36.99,78.52,3.42
594,hinton,22.0,CA,1570336234.0,77.0,53.4,-117.57,33.23,5.0
595,dodge city,1.0,US,1570336234.0,71.0,37.75,-100.02,54.0,4.7
596,norrtalje,75.0,SE,1570336234.0,74.0,59.76,18.7,37.99,6.93
597,springdale,90.0,US,1570336200.0,88.0,36.19,-94.13,71.01,12.75
598,vengerovo,0.0,RU,1570336234.0,61.0,55.68,76.74,61.24,8.77
599,anloga,40.0,GH,1570336235.0,100.0,5.79,0.9,75.2,3.36
600,benguela,100.0,AO,1570336235.0,91.0,-12.58,13.4,72.06,5.66
601,matay,0.0,EG,1570336235.0,48.0,28.42,30.79,75.01,13.22
602,doha,1.0,QA,1570336112.0,42.0,25.29,51.53,87.8,3.36
603,narsaq,60.0,GL,1570336235.0,65.0,60.91,-46.05,41.0,1.12
604,malatya,0.0,TR,1570336235.0,66.0,38.35,38.32,53.6,4.7
605,kencong,44.0,ID,1570336236.0,43.0,-7.78,112.24,89.97,14.58
606,eyl,67.0,SO,1570336236.0,51.0,7.98,49.82,85.14,13.24
607,conakry,100.0,GN,1570336236.0,86.0,9.52,-13.7,78.72,3.93
608,les cayes,100.0,HT,1570336236.0,68.0,18.19,-73.75,81.94,8.21
609,mansehra,100.0,PK,1570336236.0,35.0,34.33,73.2,70.91,1.83
610,taksimo,100.0,RU,1570336236.0,49.0,56.36,114.84,36.08,13.72
611,jacqueville,75.0,CI,1570336237.0,94.0,5.21,-4.42,77.0,3.36
613,yeppoon,0.0,AU,1570336237.0,35.0,-23.13,150.74,87.8,5.82
614,kortkeros,75.0,RU,1570336237.0,81.0,61.81,51.56,32.0,8.95
615,santa vitoria do palmar,99.0,BR,1570336237.0,90.0,-33.52,-53.37,48.23,6.33
616,iquitos,0.0,PE,1570336201.0,94.0,-3.75,-73.25,75.2,4.7
617,diffa,92.0,NE,1570336238.0,64.0,13.32,12.61,79.92,4.74
618,bara,25.0,NG,1570336238.0,87.0,10.41,10.6,72.08,4.45
619,hua hin,20.0,TH,1570336238.0,78.0,12.57,99.96,82.4,6.93
620,boldu,90.0,RO,1570336238.0,87.0,45.32,27.24,46.4,9.17
621,trabzon,75.0,TR,1570336238.0,77.0,41.01,39.72,69.8,5.82
622,rodrigues alves,0.0,BR,1570336238.0,83.0,-7.74,-72.65,72.4,1.05
623,la ronge,90.0,CA,1570336239.0,81.0,55.1,-105.3,46.4,12.75
624,whitehorse,90.0,CA,1570336239.0,95.0,60.72,-135.06,33.01,10.29
625,richards bay,0.0,ZA,1570336239.0,68.0,-28.77,32.06,74.13,22.27
626,san jeronimo,78.0,PE,1570336239.0,81.0,-13.65,-73.37,50.75,2.62
627,los amates,100.0,GT,1570336239.0,1.0,15.26,-89.1,71.01,2.33
629,san patricio,100.0,PY,1570336240.0,96.0,-26.98,-56.83,59.28,5.61
630,alushta,100.0,UA,1570336240.0,61.0,44.68,34.41,59.58,9.48
631,yar-sale,100.0,RU,1570336240.0,96.0,66.83,70.83,40.22,18.81
632,darnah,13.0,LY,1570336240.0,71.0,32.77,22.64,74.13,16.06
